City_ID,City,Country,Lat,Lng,Max Temp,Humidity,Cloudiness,Wind Speed,Current Description
0,Saint-Philippe,RE,-21.3585,55.7679,79.11,69,2,12.93,
1,Saint-Claude,FR,46.5,5.8333,62.26,84,0,4.81,
2,Tasiilaq,GL,65.6145,-37.6368,33.96,52,79,5.01,
3,Tuktoyaktuk,CA,69.4541,-133.0374,34.12,98,100,11.81,
4,East London,ZA,-33.0153,27.9116,70.74,68,0,17.27,
5,Saldanha,ZA,-33.0117,17.9442,62.76,66,100,9.28,
6,Nouadhibou,MR,20.931,-17.0347,80.58,44,90,20.71,
7,Vardo,NO,70.3705,31.1107,46.38,93,75,25.32,
8,Qaanaaq,GL,77.484,-69.3632,7.18,73,73,7.87,
9,Khatanga,RU,71.9667,102.5,18.48,96,100,6.98,
10,Mataura,NZ,-46.1927,168.8643,43.48,76,83,5.32,
11,Cape Town,ZA,-33.9258,18.4232,65.26,68,75,17.27,
12,Port Macquarie,AU,-31.4333,152.9167,62.89,89,97,6.2,
13,Poum,NC,-20.2333,164.0167,74.55,66,100,11.5,
14,Punta Arenas,CL,-53.15,-70.9167,37.51,81,0,14.97,
15,Mar Del Plata,AR,-38.0023,-57.5575,56.08,93,100,0.0,
16,Jamestown,US,42.097,-79.2353,54.72,75,0,4.61,
17,Saint-Augustin,CA,51.226,-58.6502,49.66,83,92,8.97,
18,Yellowknife,CA,62.456,-114.3525,45.12,81,75,11.5,
19,Matongo,TZ,-2.3833,34.0833,88.25,27,23,4.7,
20,North Bend,US,43.4065,-124.2243,55.92,100,100,4.61,
21,Bluff,NZ,-46.6,168.3333,43.81,61,69,15.75,
22,Summerville,US,33.0185,-80.1757,58.78,95,0,0.0,
23,Ponta Do Sol,PT,32.6667,-17.1,72.72,70,6,4.63,
24,Iki-Burul,RU,45.8208,44.6472,63.37,41,100,7.25,
25,New Norfolk,AU,-42.7826,147.0587,53.1,74,100,3.0,
26,Albany,US,42.6001,-73.9662,48.31,93,5,2.71,
27,Newala,TZ,-10.9431,39.2787,86.49,25,10,8.08,
28,Hilo,US,19.7297,-155.09,79.29,100,100,7.0,
29,Mehamn,NO,71.0357,27.8492,45.21,90,100,20.2,
30,Katsuura,JP,35.1333,140.3,59.09,93,100,19.6,
31,Kabalo,CD,-6.05,26.9167,84.36,51,100,1.68,
32,Tautira,PF,-17.7333,-149.15,76.19,75,100,22.35,
33,Faanui,PF,-16.4833,-151.75,78.04,75,12,25.88,
34,Synya,RU,65.3718,58.0387,41.94,92,100,8.19,
35,Praia Da Vitoria,PT,38.7333,-27.0667,68.76,94,75,11.97,
36,Quezada,GT,14.2722,-90.037,62.44,92,98,5.37,
37,Kudahuvadhoo,MV,2.6708,72.8944,81.57,78,100,21.09,
38,Watsa,CD,3.0372,29.5355,75.11,83,66,1.3,
39,Zhanaozen,KZ,43.3,52.8,73.83,8,80,12.86,
40,Kaniama,CD,-7.5667,24.1833,86.23,45,100,3.51,
41,Bengkulu,ID,-3.8004,102.2655,78.67,85,100,9.82,
42,Atuona,PF,-9.8,-139.0333,76.08,80,24,20.45,
43,San Miguel,SV,13.4833,-88.1833,71.74,97,100,2.86,
44,Castro,BR,-24.7911,-50.0119,56.34,96,100,7.25,
45,Camacha,PT,33.0833,-16.3333,69.22,68,20,13.8,
46,Mogwase,ZA,-25.185,27.2665,88.21,17,0,7.78,
47,Ushuaia,AR,-54.8,-68.3,35.26,87,20,10.36,
48,Murgab,TM,37.4966,61.9714,71.47,30,0,4.61,
49,Flinders,AU,-34.5833,150.8552,62.19,93,75,4.0,
50,Babati,TZ,-4.2167,35.75,81.23,34,97,5.91,
51,Salalah,OM,17.0151,54.0924,84.29,74,20,16.11,
52,Kilindoni,TZ,-7.9139,39.6668,78.33,70,56,11.21,
53,Ancud,CL,-41.8697,-73.8203,44.44,78,84,4.0,
54,Beringovskiy,RU,63.05,179.3167,39.9,71,2,31.63,
55,Barrow,US,71.2906,-156.7887,33.82,86,100,23.02,
56,Itaituba,BR,-4.2761,-55.9836,73.13,70,85,0.98,
57,Araouane,ML,18.9048,-3.5265,96.12,19,88,5.53,
58,Bredasdorp,ZA,-34.5322,20.0403,68.68,42,100,16.4,
59,Vaini,TO,-21.2,-175.2,73.56,100,75,3.44,
60,Narsaq,GL,60.9167,-46.05,35.82,79,12,6.71,
61,Bambanglipuro,ID,-7.95,110.2833,80.08,78,80,13.0,
62,Severo-Kurilsk,RU,50.6789,156.125,44.17,81,56,16.75,
63,Talnakh,RU,69.4865,88.3972,31.21,96,99,5.35,
64,Hermanus,ZA,-34.4187,19.2345,67.8,63,100,18.48,
65,Taywarah,AF,33.35,64.4167,61.66,3,0,6.53,
66,Savyntsi,UA,49.4026,37.0627,60.84,52,77,10.76,
67,Ipixuna,BR,-1.7625,-48.8043,72.79,95,30,4.94,
68,Stornoway,GB,58.2093,-6.3865,52.93,83,40,27.63,
69,Iqaluit,CA,63.7506,-68.5145,28.13,92,100,12.66,
70,La Rioja,ES,42.25,-2.5,56.98,68,100,3.4,
71,Arraial Do Cabo,BR,-22.9661,-42.0278,69.66,83,75,13.8,
72,Srednekolymsk,RU,67.45,153.6833,23.52,93,100,23.71,
73,Sitka,US,57.0531,-135.33,55.29,94,100,0.0,
74,Ayan,RU,56.45,138.1667,36.18,56,55,10.94,
75,Kaitangata,NZ,-46.2817,169.8464,41.56,74,83,12.75,
76,Rikitea,PF,-23.1203,-134.9692,68.88,67,75,20.49,
77,Yerbogachen,RU,61.2767,108.0108,34.3,65,65,4.18,
78,Norman Wells,CA,65.282,-126.8329,39.24,87,75,4.61,
79,Mahebourg,MU,-20.4081,57.7,77.29,65,75,17.27,
80,San Cristobal,VE,7.7669,-72.225,65.91,96,100,3.38,
81,Goure,NE,13.9835,10.2704,87.08,41,97,6.17,
82,Otane,NZ,-39.8833,176.6333,38.01,69,3,4.38,
83,Zhigansk,RU,66.7697,123.3711,24.33,73,34,25.32,
84,Dikson,RU,73.5069,80.5464,33.51,92,100,17.98,
85,Asau,RO,46.4333,26.4,60.28,42,100,4.09,
86,Busselton,AU,-33.65,115.3333,56.97,67,100,11.43,
87,Avera,US,33.194,-82.5271,50.38,53,6,1.77,
88,Puerto Ayora,EC,-0.7393,-90.3518,64.54,100,97,4.0,
89,Sawakin,SD,19.1059,37.3321,94.93,36,6,7.56,
90,Fayaoue,NC,-20.65,166.5333,74.23,70,100,21.72,
91,Provideniya,RU,64.3833,-173.3,39.54,70,67,34.05,
92,Hithadhoo,MV,-0.6,73.0833,82.53,74,16,20.76,
93,Port Alfred,ZA,-33.5906,26.891,65.17,77,100,7.0,
94,Kiama,AU,-34.6833,150.8667,62.38,94,72,8.99,
95,Anadyr,RU,64.75,177.4833,36.1,69,0,24.61,
96,Butaritari,KI,3.0707,172.7902,81.75,78,10,16.2,
97,Pervomayskoye,RU,43.919,46.7102,66.74,54,97,13.27,
98,Iquique,CL,-20.2208,-70.1431,55.44,68,0,5.84,
99,Hobart,AU,-42.8794,147.3294,53.46,89,75,12.66,
100,Kisangani,CD,0.5167,25.2,86.67,55,100,2.93,
101,Souillac,MU,-20.5167,57.5167,77.38,65,75,17.27,
102,Victor Harbor,AU,-35.5667,138.6167,64.69,86,93,5.23,
103,Half Moon Bay,US,37.4636,-122.4286,62.02,92,100,9.22,
104,Carnarvon,AU,-24.8667,113.6333,70.3,41,0,22.68,
105,The Valley,AI,18.217,-63.0578,82.26,70,97,20.51,
106,Grand Gaube,MU,-20.0064,57.6608,77.4,76,9,20.29,
107,Bambous Virieux,MU,-20.3428,57.7575,77.25,65,75,17.27,
108,Turukhansk,RU,65.8167,87.9833,32.74,91,100,2.1,
109,Bairiki,KI,1.3292,172.9752,82.4,78,20,8.05,
110,Geraldton,AU,-28.7667,114.6,64.81,52,0,17.27,
111,Kodiak,US,57.79,-152.4072,51.31,82,20,6.91,
112,Jalu,LY,29.0331,21.5482,79.74,34,0,10.36,
113,Riviere-Au-Renard,CA,48.9957,-64.3971,49.06,81,7,9.42,
114,Yumen,CN,40.2833,97.2,60.66,25,0,6.62,
115,Waiuku,NZ,-37.25,174.75,51.33,51,36,9.1,
116,Quatre Cocos,MU,-20.2078,57.7625,77.11,71,42,16.98,
117,Benghazi,LY,32.1167,20.0667,75.97,50,0,12.28,
118,Nara,JP,34.6851,135.8049,67.5,35,75,4.23,
119,Kandrian,PG,-6.2167,149.55,80.35,83,52,8.77,
120,Kaeo,NZ,-35.1,173.7833,50.32,78,13,7.29,
121,Deputatskiy,RU,69.3,139.9,16.52,90,99,10.09,
122,Thompson,CA,55.7435,-97.8558,28.56,64,100,4.61,
123,Balakhninskiy,RU,58.0106,114.2769,30.56,88,100,0.45,
124,Mzimba,MW,-11.9,33.6,80.64,21,6,13.58,
125,Pisco,PE,-13.7,-76.2167,59.05,82,100,5.75,
126,Petatlan,MX,17.5167,-101.2667,74.68,88,97,3.33,
127,Puerto Colombia,CO,10.9878,-74.9547,77.09,81,100,2.84,
128,Panaba,MX,21.2833,-88.2667,66.67,86,6,1.7,
129,La Plata,AR,-34.9215,-57.9545,58.03,87,92,3.31,
130,Srbac,BA,45.0978,17.525,62.73,52,83,1.19,
131,Basco,PH,20.4487,121.9702,83.03,77,10,18.61,
132,Ribeira Grande,PT,38.5167,-28.7,72.0,88,75,6.91,
133,Balsas,BR,-7.5325,-46.0356,73.96,46,29,3.83,
134,Sovik,NO,65.9333,12.4667,50.41,88,75,20.0,
135,Alekseyevsk,RU,57.8406,108.3492,35.22,71,95,1.14,
136,Tilichiki,RU,60.4667,166.1,33.8,77,51,18.21,
137,Longyearbyen,SJ,78.2186,15.6401,39.04,75,75,12.66,
138,Saskylakh,RU,71.9167,114.0833,14.02,92,89,12.1,
139,Leningradskiy,RU,69.3833,178.4167,29.89,97,100,7.87,
140,Sao Filipe,CV,14.8961,-24.4956,79.7,82,96,9.84,
141,Bereda,ES,43.2686,-7.5406,66.42,94,96,6.58,
142,Huesca,ES,42.1362,-0.4087,73.09,74,40,2.3,
143,Surovatikha,RU,55.7652,43.8984,45.25,74,94,9.84,
144,Kachkanar,RU,58.7,59.4948,44.87,83,100,3.83,
145,Iringa,TZ,-7.7667,35.7,78.64,17,9,9.95,
146,Havelock,US,34.8791,-76.9013,58.95,95,0,4.36,
147,Trairi,BR,-3.2778,-39.2689,78.49,74,33,13.31,
148,Saquena,PE,-4.6667,-73.5167,74.26,83,35,2.3,
149,Clyde River,CA,70.4692,-68.5914,23.23,80,100,11.5,
150,Georgetown,MY,5.4112,100.3354,85.95,83,20,6.91,
151,Kaoma,ZM,-14.7833,24.8,92.48,11,18,11.3,
152,Chokurdakh,RU,70.6333,147.9167,18.75,96,78,8.39,
153,Santa Rosa,PH,14.3122,121.1114,90.1,76,97,12.33,
154,Swadlincote,GB,52.774,-1.5574,57.76,79,0,17.27,
155,Charters Towers,AU,-20.1,146.2667,77.41,56,62,18.37,
156,Cayenne,GF,4.9333,-52.3333,71.64,100,75,2.3,
157,Saint-Jean-De-Maurienne,FR,45.1667,6.5833,52.25,59,7,2.39,
158,Shimoda,JP,34.6667,138.95,54.1,89,100,19.3,
159,Saravan,AM,39.7196,45.6483,75.83,17,30,11.03,
160,Namibe,AO,-15.1961,12.1522,72.23,68,0,13.8,
161,Kruisfontein,ZA,-34.0033,24.7314,67.89,51,98,13.71,
162,Keetmanshoop,NA,-26.5833,18.1333,77.47,11,1,7.11,
163,Port Blair,IN,11.6667,92.75,84.24,79,40,5.75,
164,Nanortalik,GL,60.1432,-45.2371,34.79,82,8,12.77,
165,Vostok,RU,46.4856,135.8833,30.78,62,65,4.07,
166,Kapaa,US,22.0752,-159.319,73.38,76,0,5.75,
167,Yerofey Pavlovich,RU,53.9667,121.9667,32.97,52,29,4.41,
168,Yatou,CN,37.15,122.3833,54.63,53,100,10.0,
169,Seoul,KR,37.5683,126.9778,62.17,72,75,5.75,
170,Tamandare,BR,-8.7597,-35.1047,75.63,88,42,5.37,
171,Paita,PE,-5.0892,-81.1144,60.69,87,13,10.69,
172,Faya,SA,18.3851,42.4509,78.91,21,35,4.09,
173,Bethel,US,41.3712,-73.414,57.56,91,0,3.44,
174,Novorudnyy,RU,51.5026,58.1873,59.79,21,100,15.48,
175,Necochea,AR,-38.5473,-58.7368,52.57,82,100,6.85,
176,Xifeng,CN,42.7372,124.7222,43.09,52,99,4.43,
177,Vanderhoof,CA,54.0166,-124.0198,50.2,84,100,1.48,
178,Boende,CD,-0.2167,20.8667,83.55,55,98,1.34,
179,Oussouye,SN,12.485,-16.5469,86.09,72,13,7.05,
180,Tabou,CI,4.423,-7.3528,78.51,82,100,3.06,
181,Upernavik,GL,72.7868,-56.1549,19.53,83,100,7.56,
182,Alim,PH,9.5649,122.4876,84.7,77,100,2.82,
183,Superior,US,46.7208,-92.1041,52.7,84,0,11.5,
184,Puerto Del Rosario,ES,28.5004,-13.8627,74.95,64,20,19.57,
185,Gardanne,FR,43.4549,5.4691,69.13,64,28,5.03,
186,Lagoa,PT,39.05,-27.9833,69.66,85,100,12.48,
187,Buribay,RU,51.9617,58.1592,58.15,26,100,13.73,
188,Sorland,NO,67.667,12.6934,49.6,74,64,25.66,
189,Sorkjosen,NO,69.8,20.9333,44.6,81,75,2.3,
190,Lethem,GY,3.3803,-59.7968,75.25,83,57,5.82,
191,Jimeta,NG,9.2833,12.4667,82.63,78,20,6.91,
192,Palmeiras De Goias,BR,-16.805,-49.9258,71.29,76,91,2.62,
193,Galveston,US,29.3669,-94.9669,74.97,75,0,0.0,
194,Bambamarca,PE,-6.6833,-78.5333,50.77,88,76,2.82,
195,Margate,GB,51.3813,1.3862,59.7,68,1,5.01,
196,Sioux Lookout,CA,50.1001,-91.917,33.87,93,100,12.66,
197,Lebanon,US,36.2081,-86.2911,54.97,87,40,0.0,
198,Warangal,IN,18.0,79.5833,75.2,91,100,7.4,
199,Pouembout,NC,-21.1333,164.9,71.38,68,100,6.11,
200,Zyryanka,RU,65.75,150.85,22.68,89,100,26.26,
201,Kantunilkin,MX,21.0917,-87.45,66.61,89,4,1.03,
202,Mizque,BO,-17.941,-65.3402,61.23,35,43,5.39,
203,Cockburn Town,TC,21.4612,-71.1419,82.62,76,68,10.36,
204,Birao,CF,10.2849,22.7882,86.68,58,62,0.51,
205,Port-Cartier,CA,50.0334,-66.8654,48.42,93,64,3.58,
206,Ambilobe,MG,-13.2,49.05,94.35,27,6,13.51,
207,Nikolskoye,RU,59.7035,30.7861,55.29,87,100,11.52,
208,Reporoa,NZ,-38.4333,176.35,36.41,60,3,2.51,
209,Touros,BR,-5.1989,-35.4608,78.03,79,22,10.92,
210,Pacifica,US,37.6138,-122.4869,61.84,94,20,9.22,
211,Roald,NO,62.5833,6.1333,54.75,81,75,25.32,
212,Beidao,CN,34.5686,105.8933,59.86,60,100,1.21,
213,Fortuna,US,40.5982,-124.1573,56.93,87,68,2.93,
214,Richards Bay,ZA,-28.783,32.0377,96.89,33,0,7.05,
215,Kavieng,PG,-2.5744,150.7967,82.76,77,85,13.94,
216,Cidreira,BR,-30.1811,-50.2056,63.7,91,100,15.77,
217,Jasper,US,37.2001,-94.3502,56.98,76,0,0.0,
218,Nelson Bay,AU,-32.7167,152.15,64.45,91,100,13.0,
219,Lebu,CL,-37.6167,-73.65,50.59,96,100,13.82,
220,Port Elizabeth,ZA,-33.918,25.5701,70.11,57,20,18.41,
221,Grand-Lahou,CI,5.1367,-5.0242,79.5,78,65,5.99,
222,Nur,PL,52.6683,22.3221,61.99,66,8,15.57,
223,Sibolga,ID,1.7427,98.7792,79.93,82,100,0.69,
224,Rawson,AR,-43.3002,-65.1023,55.65,44,0,21.03,
225,Miguel Calmon,BR,-11.4289,-40.595,67.35,85,98,5.26,
226,Tevaitoa,PF,-16.7833,-151.5,77.65,76,11,26.31,
227,Turkistan,KZ,43.0,68.0,73.56,17,0,25.37,
228,Aklavik,CA,68.2191,-135.0107,29.62,89,76,7.61,
229,Pesaro,IT,43.9036,12.8903,72.95,79,84,1.01,
230,Trinidad,BO,-14.8333,-64.9,74.82,83,69,4.18,
231,Lorengau,PG,-2.0226,147.2712,82.24,79,28,9.44,
232,Tiksi,RU,71.6872,128.8694,23.32,89,99,17.87,
233,Poitiers,FR,46.5833,0.3333,61.25,45,0,9.22,
234,Gimli,CA,50.6336,-96.9907,33.82,86,76,12.66,
235,Dunedin,NZ,-45.8742,170.5036,41.36,81,86,18.84,
236,Arman,RU,59.7,150.1667,16.02,68,59,4.25,
237,Jurm,AF,36.8648,70.8342,63.93,28,34,8.3,
238,Klaksvik,FO,62.2266,-6.589,47.32,81,97,13.42,
239,Bombay,IN,19.0144,72.8479,84.18,84,75,10.36,
240,Ixtapa,MX,20.7,-105.2,78.22,86,22,3.87,
241,Kalabo,ZM,-14.97,22.6814,95.11,10,48,12.73,
242,Borogontsy,RU,62.6683,131.1683,26.56,73,100,2.01,
243,Bathsheba,BB,13.2167,-59.5167,81.21,83,20,18.41,
244,Hambantota,LK,6.1241,81.1185,91.74,55,40,17.27,
245,Broken Hill,AU,-31.95,141.4333,74.82,27,13,5.37,
246,Rio De Janeiro,BR,-22.9028,-43.2075,72.95,83,20,6.91,
247,Olinda,BR,-8.0089,-34.8553,74.93,94,75,6.91,
248,Qaqortoq,GL,60.7167,-46.0333,29.8,84,7,5.21,
249,Yen Bai,VN,21.7,104.8667,85.32,71,54,4.12,
250,Victoria,HK,22.2855,114.1577,91.18,73,1,10.0,
251,Koeru,EE,58.9631,26.0308,53.58,87,100,15.21,
252,Mogadishu,SO,2.0371,45.3438,85.87,70,75,9.22,
253,Omsukchan,RU,62.5333,155.8,13.6,88,100,12.03,
254,Karaton,ID,-6.3424,106.1045,79.11,85,99,1.48,
255,Iwanai,JP,42.9744,140.5089,46.54,63,97,4.81,
256,Quelimane,MZ,-17.8786,36.8883,85.95,62,20,12.66,
257,Winnemucca,US,40.973,-117.7357,59.25,31,0,4.79,
258,Dudinka,RU,69.4058,86.1778,31.62,87,100,4.21,
259,Jinchang,CN,38.4953,102.1739,57.27,27,7,5.14,
260,Qasigiannguit,GL,68.8193,-51.1922,25.05,76,98,6.15,
261,San Patricio,US,28.017,-97.5169,75.06,71,34,4.09,
262,Zaporizhzhya,UA,47.8167,35.1833,64.04,41,87,7.67,
263,Mobai,SL,7.9944,-10.7511,75.9,90,97,1.28,
264,Solnechnyy,RU,50.7214,136.6319,33.53,51,25,7.83,
265,Matara,LK,5.9485,80.5353,82.56,71,100,15.5,
266,Husavik,IS,66.0449,-17.3389,36.28,91,100,15.32,
267,Nouakchott,MR,18.0858,-15.9785,87.73,64,96,1.3,
268,Sitamau,IN,24.0167,75.35,87.12,55,55,12.82,
269,Airai,TL,-8.9266,125.4092,66.67,83,100,3.06,
270,Muzhi,RU,65.3667,64.6667,44.58,90,100,7.0,
271,Yabelo,ET,4.8833,38.0833,67.28,59,83,11.43,
272,Codrington,AU,-38.2667,141.9667,57.42,93,70,6.67,
273,Vila Velha,BR,-20.3297,-40.2925,71.55,100,100,3.44,
274,Lashio,MM,22.9333,97.75,78.19,78,91,2.66,
275,Zaqatala,AZ,41.6336,46.6433,75.67,47,40,6.91,
276,Svetlyy,RU,54.675,20.1347,60.85,75,92,22.84,
277,Ransang,PH,8.9603,117.5828,81.68,85,100,5.95,
278,Rawlins,US,41.7911,-107.2387,35.49,80,0,3.44,
279,Grand-Santi,GF,4.25,-54.3833,70.09,100,31,2.06,
280,Labuhan,ID,-6.8844,112.2051,84.31,69,100,4.88,
281,Gamba,GA,-2.65,10.0,80.01,74,99,7.43,
282,Eyl,SO,7.9803,49.8164,90.3,48,16,18.52,
283,Mezen,RU,65.8522,44.24,47.66,90,92,8.99,
284,Bardsir,IR,29.9227,56.5743,74.53,10,0,11.34,
285,Caravelas,BR,-17.7125,-39.2481,73.69,88,62,5.97,
286,Chuy,UY,-33.6971,-53.4616,58.77,87,100,11.74,
287,Cherskiy,RU,68.75,161.3,27.91,91,100,29.26,
288,Roseburg,US,43.2165,-123.3417,56.52,90,0,0.0,
289,Horki,BY,54.2861,30.9842,56.14,71,4,11.79,
290,Porto Novo,BJ,6.4965,2.6036,82.22,81,100,6.33,
291,Rocha,UY,-34.4833,-54.3333,55.83,92,100,8.41,
292,Dicamay,PH,16.7561,122.0037,80.83,84,99,3.18,
293,Luderitz,NA,-26.6481,15.1594,71.06,38,21,23.69,
294,Mataram,ID,-8.5833,116.1167,81.41,82,97,10.45,
295,Kenai,US,60.5544,-151.2583,54.09,72,20,8.05,
296,Mandera,KE,3.9366,41.867,87.64,44,91,6.98,
297,Hay River,CA,60.8156,-115.7999,40.98,65,20,13.8,
298,Bundaberg,AU,-24.85,152.35,70.21,75,52,1.01,
299,Florianopolis,BR,-27.6146,-48.5012,66.42,92,75,10.36,
300,Acapulco,MX,16.8634,-99.8901,76.82,88,40,3.44,
301,Alyangula,AU,-13.8483,136.4192,82.74,74,9,8.52,
302,Tuatapere,NZ,-46.1333,167.6833,42.1,72,95,7.25,
303,Te Anau,NZ,-45.4167,167.7167,33.55,91,48,2.62,
304,Brae,GB,60.3964,-1.353,50.0,79,42,32.28,
305,Yulara,AU,-25.2406,130.9889,85.84,23,86,19.57,
306,Portland,US,45.5234,-122.6762,59.04,93,75,1.99,
307,Indianola,US,41.3581,-93.5574,53.87,80,11,7.18,
308,Wagar,SD,16.1525,36.2032,98.47,17,5,8.48,
309,Kharan,PK,28.5833,65.4167,86.86,10,0,3.49,
310,Tagusao,PH,9.1924,117.8141,82.63,80,100,7.09,
311,Saint-Pierre,RE,-21.3393,55.4781,80.19,65,20,21.85,
312,Farmington,US,36.7281,-108.2187,52.48,87,100,3.44,
313,Fukue,JP,32.6881,128.8419,68.36,73,75,2.3,
314,Iquitos,PE,-3.7481,-73.2472,75.24,100,0,1.14,
315,Anchorage,US,61.2181,-149.9003,56.93,69,75,13.8,
316,Tura,IN,25.5198,90.2201,82.29,74,74,4.76,
317,Artesia,US,33.8658,-118.0831,70.68,88,100,1.01,
318,Amahai,ID,-3.3333,128.9167,81.16,82,99,4.05,
319,Palu,ID,-0.8917,119.8707,79.57,95,100,1.21,
320,Sharhorod,UA,48.7383,28.085,62.69,45,87,8.97,
321,Sola,VU,-13.8833,167.55,75.87,94,100,0.0,
322,Tomatlan,MX,19.9333,-105.25,72.0,96,21,3.67,
323,Saint-Georges,GD,12.0564,-61.7485,76.68,88,40,11.5,
324,Hualmay,PE,-11.0964,-77.6139,59.02,86,45,8.19,
325,Maxixe,MZ,-23.8597,35.3472,89.33,44,0,11.25,
326,Sheltozero,RU,61.3667,35.3667,49.64,85,99,14.27,
327,Saint-Joseph,RE,-21.3667,55.6167,79.11,68,17,10.65,
328,Taitung,TW,22.7583,121.1444,82.67,83,75,9.22,
329,Port Hardy,CA,50.6996,-127.4199,53.6,100,75,2.3,
330,Nuuk,GL,64.1835,-51.7216,34.41,86,75,6.91,
331,Noumea,NC,-22.2763,166.4572,67.98,72,100,11.72,
332,Mareeba,AU,-17.0,145.4333,75.43,82,54,5.84,
333,Coruripe,BR,-10.1256,-36.1756,74.46,89,81,5.95,
334,Abu Zabad,SD,12.35,29.25,89.29,43,88,1.54,
335,Syedove,UA,47.0768,38.156,58.62,52,60,2.48,
336,San Jeronimo,PE,-11.9472,-75.2829,49.77,67,94,2.64,
337,Lavrentiya,RU,65.5833,-171.0,39.27,78,77,30.04,
338,Stawell,AU,-37.05,142.7667,57.34,89,77,4.47,
339,Pevek,RU,69.7008,170.3133,31.15,97,100,12.39,
340,Sonoita,MX,31.85,-112.8333,75.69,52,7,2.84,
341,Bac Lieu,VN,9.285,105.7244,80.98,81,100,4.27,
342,Sungairaya,ID,0.7,108.9,81.37,77,95,6.69,
343,Kabare,CD,-2.4683,28.8242,79.14,42,80,6.29,
344,Ngunguru,NZ,-35.6167,174.5,49.95,62,34,9.35,
345,Homer,US,59.6425,-151.5483,52.03,76,75,10.0,
346,Kodinsk,RU,58.6881,99.1844,37.63,78,100,3.29,
347,Cap-Aux-Meules,CA,47.3821,-61.8597,51.85,93,75,3.44,
348,Mount Isa,AU,-20.7333,139.5,87.57,33,75,5.75,
349,Kadoma,JP,34.7333,135.5833,69.75,47,75,4.61,
350,Ilulissat,GL,69.2167,-51.1,24.82,86,100,0.0,
351,Ganzhou,CN,28.8184,115.4327,61.18,76,100,6.62,
352,Tessalit,ML,20.1986,1.0114,95.83,13,18,17.11,
353,Los Llanos De Aridane,ES,28.6585,-17.9182,70.12,93,75,14.97,
354,San Policarpo,PH,12.1791,125.5072,82.13,82,99,7.99,
355,Pachino,IT,36.7186,15.0907,72.09,55,6,9.26,
356,Samarai,PG,-10.6167,150.6667,81.21,83,57,10.85,
357,Bandarbeyla,SO,9.4942,50.8122,89.67,51,72,21.54,
358,Maturin,VE,9.75,-63.1767,71.44,100,100,3.44,
359,Avarua,CK,-21.2078,-159.775,73.45,73,75,17.27,
360,Nautla,MX,20.2167,-96.7833,71.49,95,100,8.66,
361,La Romana,DO,18.4273,-68.9728,76.77,87,50,4.88,
362,Bogale,MM,16.2833,95.4,88.16,67,100,5.73,
363,Constitucion,CL,-35.3333,-72.4167,51.01,76,99,3.31,
364,Nago,JP,26.5881,127.9761,82.83,74,42,8.57,
365,Pombas,CV,17.1503,-25.0201,78.58,79,63,11.34,
366,Senno,RU,59.5336,33.9167,49.26,89,100,10.83,
367,Takoradi,GH,4.8845,-1.7554,79.45,79,58,7.72,
368,Vila Franca Do Campo,PT,37.7167,-25.4333,70.21,82,97,8.81,
369,Cabo San Lucas,MX,22.8909,-109.9124,76.6,77,0,6.87,
370,Komsomolskiy,UZ,40.4272,71.7189,74.12,20,0,4.61,
371,Lewistown,US,40.5992,-77.5714,49.64,78,20,2.82,
372,Carbonia,IT,39.1672,8.5222,74.35,52,4,3.56,
373,San Quintin,MX,30.4833,-115.95,67.5,86,0,5.21,
374,Teya,RU,60.3778,92.6267,34.0,93,100,2.86,
375,Natalio,PY,-26.7167,-55.0833,65.95,99,100,5.48,
376,Filadelfia,US,39.9523,-75.1638,55.29,90,0,6.91,
377,Alofi,NU,-19.0595,-169.9187,71.49,94,88,2.3,
378,Muros,ES,42.7762,-9.0603,69.1,76,13,11.25,
379,Saint George,US,37.1041,-113.5841,69.94,39,0,3.44,
380,Dubti,ET,11.7361,41.0853,97.27,24,6,3.47,
381,Vannes,FR,47.8333,-2.5,59.61,56,3,1.99,
382,Svetlaya,RU,46.5389,138.3297,41.13,48,8,7.23,
383,Betanzos,ES,43.2804,-8.2147,68.11,77,40,4.61,
384,Moose Factory,CA,51.2585,-80.6094,42.8,93,100,9.22,
385,Viedma,AR,-40.8135,-62.9967,57.54,48,98,17.18,
386,Hajipur,IN,25.6833,85.2167,87.78,74,75,6.91,
387,Acari,PE,-15.4311,-74.6158,59.92,74,45,3.47,
388,Calawag,PH,10.6697,119.5707,80.17,88,100,7.81,
389,Mozarlandia,BR,-14.7447,-50.5706,82.22,52,78,2.89,
390,Kathu,TH,7.9178,98.3332,84.02,78,100,4.61,
391,Linhares,BR,-19.3911,-40.0722,73.67,85,85,4.07,
392,Bulgan,MN,48.8125,103.5347,37.47,39,96,2.57,
393,Itoman,JP,26.1247,127.6694,82.78,77,75,14.97,
394,Astoria,US,46.1879,-123.8313,57.47,96,100,0.0,
395,Maun,BW,-19.9833,23.4167,91.36,19,0,9.22,
396,Acajutla,SV,13.5928,-89.8275,77.38,74,100,5.14,
397,Lazaro Cardenas,MX,17.9583,-102.2,76.44,88,94,3.91,
398,Meulaboh,ID,4.1363,96.1285,78.39,85,99,0.87,
399,Puerto Escondido,MX,15.85,-97.0667,76.33,83,42,4.45,
400,Khandyga,RU,62.6667,135.6,16.57,81,71,2.46,
401,Baykit,RU,61.67,96.37,34.92,86,100,1.74,
402,Sechura,PE,-5.5569,-80.8222,60.46,85,14,9.28,
403,Doha,QA,25.2867,51.5333,105.78,17,0,13.8,
404,Mocuba,MZ,-16.8392,36.9856,99.52,17,0,7.7,
405,Kavaratti,IN,10.5669,72.642,81.57,76,86,17.74,
406,Ternate,ID,0.8,127.4,82.69,77,59,1.81,
407,Alexandria,EG,31.2156,29.9553,77.23,51,0,12.59,
408,Comodoro Rivadavia,AR,-45.8667,-67.5,49.86,50,0,26.46,
409,Floro,NO,61.5996,5.0328,53.56,76,75,18.41,
410,Seymchan,RU,62.8833,152.4333,20.62,88,100,9.17,
411,San Esteban,HN,15.2,-85.75,69.22,97,100,0.36,
412,Waingapu,ID,-9.6567,120.2641,82.71,75,100,12.68,
413,Padang,ID,-0.9492,100.3543,78.85,83,93,2.51,
414,Nizhniy Kuranakh,RU,58.8353,125.4869,29.37,97,100,8.72,
415,Egvekinot,RU,66.3167,-179.1667,27.57,79,100,34.0,
416,Cap Malheureux,MU,-19.9842,57.6142,77.47,58,7,11.99,
417,Lompoc,US,34.6391,-120.4579,61.57,100,100,5.75,
418,Shieli,KZ,44.1667,66.75,73.17,14,0,19.82,
419,Pochutla,MX,15.7432,-96.4661,73.81,80,96,4.41,
420,Anito,PH,12.4497,125.2886,79.77,88,99,6.64,
421,Roswell,US,34.0232,-84.3616,55.54,83,0,0.0,
422,Jiwani,PK,25.05,61.7417,83.5,65,0,8.77,
423,Sisophon,KH,13.5859,102.9737,82.06,80,93,5.97,
424,Fergus Falls,US,46.283,-96.0776,45.16,77,40,10.36,
425,Houston,US,29.7633,-95.3633,69.06,87,0,0.0,
426,Kokkola,FI,63.8385,23.1307,50.94,93,20,9.22,
427,General Roca,AR,-39.0333,-67.5833,55.96,40,34,20.09,
428,Lasa,IT,46.6166,10.7002,63.48,54,4,1.14,
429,Zemio,CF,5.0314,25.1361,82.69,65,96,2.55,
430,Calvinia,ZA,-31.4707,19.776,63.07,23,98,10.22,
431,Marawi,PH,7.9986,124.2928,71.47,92,99,0.89,
432,Tuy Hoa,VN,13.0833,109.3,80.17,87,90,5.95,
433,Taraz,KZ,42.9,71.3667,61.21,29,0,6.71,
434,Ghanzi,BW,-21.5667,21.7833,96.67,11,0,11.77,
435,Saint Anthony,US,45.0205,-93.218,60.73,84,75,12.66,
436,Boulder City,US,35.9786,-114.8325,76.59,32,0,4.61,
437,Ogulin,HR,45.2661,15.2286,57.61,62,100,3.4,
438,Sinnamary,GF,5.3833,-52.95,78.4,86,7,8.66,
439,Sumbe,AO,-11.2061,13.8437,77.7,72,43,7.11,
440,Port Hedland,AU,-20.3167,118.5667,80.65,65,0,16.11,
441,Batagay,RU,67.6333,134.6333,18.32,94,100,5.06,
442,Durusu,TR,41.3053,28.6767,69.98,63,29,15.99,
443,Mabaruma,GY,8.2,-59.7833,72.1,99,96,2.75,
444,Kutum,SD,14.2,24.6667,87.93,19,87,16.6,
445,Saint-Malo,FR,48.5,-1.8333,58.21,73,4,4.9,
446,Pahrump,US,36.2083,-115.9839,68.05,23,0,3.04,
447,Ritchie,ZA,-29.038,24.6028,87.01,13,34,11.63,
448,Sarreguemines,FR,49.0833,7.3333,60.84,60,83,1.01,
449,Paris,FR,48.8534,2.3488,60.94,76,0,9.22,
450,Eyrarbakki,IS,63.863,-21.1481,41.05,77,97,3.27,
451,Leh,IN,34.1667,77.5833,53.4,14,1,8.1,
452,Taman,RU,45.2117,36.7161,63.07,55,57,11.9,
453,Tarata,BO,-17.6167,-66.0167,54.68,31,39,2.28,
454,Kloulklubed,PW,7.0419,134.2556,82.9,70,9,7.7,
455,Buraydah,SA,26.326,43.975,95.45,8,0,4.38,
456,Ponta Delgada,PT,37.7333,-25.6667,71.51,83,40,10.36,
457,Meadow Lake,US,34.8014,-106.5436,56.12,91,100,7.23,
458,Dingle,PH,10.9995,122.6711,79.34,86,100,6.78,
459,Mandalgovi,MN,45.7625,106.2708,44.55,19,33,12.86,
460,Launceston,AU,-41.45,147.1667,56.84,75,100,10.36,
461,Sibu,MY,2.3,111.8167,77.31,94,40,5.99,
462,Bulembu,SZ,-25.9667,31.1333,92.77,12,0,10.0,
463,Boiro,ES,42.65,-8.9,68.79,72,7,9.69,
464,Buala,SB,-8.145,159.5921,80.26,75,99,5.28,
465,Hoa Binh,VN,20.8133,105.3383,81.95,86,23,2.08,
466,Porto Walter,BR,-8.2686,-72.7439,71.69,91,46,1.66,
467,Kachug,RU,53.9606,105.8817,34.16,92,100,0.92,
468,Whitehorse,CA,60.7161,-135.0538,47.17,80,40,17.27,
469,Makat,KZ,47.6469,53.3463,72.59,15,100,10.09,
470,Vao,NC,-22.6667,167.4833,71.19,64,100,16.31,
471,Paramonga,PE,-10.6667,-77.8333,59.32,86,69,6.02,
472,Naze,JP,28.3667,129.4833,74.32,74,26,9.75,
473,Edd,ER,13.9297,41.6925,92.82,54,53,13.51,
474,Miri,MY,4.4148,114.0089,84.34,79,40,8.05,
475,Gasa,PS,31.5,34.4667,87.87,58,1,10.92,
476,Morro Bay,US,35.3658,-120.8499,67.12,22,2,4.83,
477,Atbasar,KZ,51.8,68.3333,65.26,25,83,11.1,
478,Merzifon,TR,40.8733,35.4631,58.46,63,75,18.41,
479,Palmer,US,42.1584,-72.3287,57.61,72,47,3.44,
480,Auchi,NG,7.0667,6.2667,82.44,71,99,4.32,
481,Ouesso,CG,1.6136,16.0517,79.74,76,98,1.59,
482,Englehart,CA,47.8169,-79.8664,55.96,94,100,3.44,
483,Jutai,BR,-5.1833,-68.9,73.06,87,77,0.81,
484,San Felipe,VE,10.3399,-68.7425,71.62,99,100,2.04,
485,Grindavik,IS,63.8424,-22.4338,41.47,87,75,4.61,
486,Adrar,MR,20.5022,-10.0711,92.17,9,5,13.4,
487,Bansang,GM,13.4333,-14.65,84.24,68,66,4.16,
488,Thinadhoo,MV,0.5333,72.9333,82.24,76,59,21.39,
489,Guarare,PA,7.8167,-80.2833,76.19,89,100,2.53,
490,Manaure,CO,11.7751,-72.4445,81.0,76,100,0.78,
491,Esperance,AU,-33.8667,121.9,54.95,69,60,20.56,
492,Hovd,MN,48.0056,91.6419,51.42,21,95,4.09,
493,Tinde,TZ,-3.8833,33.2,90.1,20,38,7.87,
494,Bayan,CN,46.0833,127.4,40.96,44,97,4.61,
495,College,US,64.8569,-147.8028,38.07,83,40,0.0,
496,Mhango,TZ,-3.2833,32.85,89.13,22,59,8.41,
497,Abu Dhabi,AE,24.4667,54.3667,96.91,59,0,6.91,
498,Khorixas,NA,-20.3667,14.9667,91.13,8,4,11.05,
499,Vrangel,RU,42.7297,133.0839,47.66,41,100,7.27,
500,Ormara,PK,25.2088,64.6357,80.44,74,0,9.95,
501,Katherine,AU,-14.4667,132.2667,95.32,31,81,5.75,
502,Alice Springs,AU,-23.7,133.8833,90.95,40,18,13.8,
503,Mao,ES,39.8885,4.2658,75.76,64,20,16.11,
504,Jucuaran,SV,13.2539,-88.2478,65.3,97,97,2.93,
505,Hofn,IS,64.2539,-15.2082,43.61,56,73,9.24,
506,Dwarahat,IN,29.7833,79.4333,70.9,80,75,5.55,
507,Konotop,UA,51.2403,33.2026,58.59,66,76,11.23,
508,Guymon,US,36.6828,-101.4816,51.8,93,0,4.61,
509,Coquimbo,CL,-29.9533,-71.3436,49.73,87,0,8.05,
510,Gat,IL,31.61,34.7642,89.4,20,0,10.33,
511,Vetlanda,SE,57.4289,15.0776,52.54,73,100,16.71,
512,Wladyslawowo,PL,54.7909,18.4009,62.15,74,36,28.45,
513,Ilo,PE,-17.6394,-71.3375,57.54,81,39,9.55,
514,Ankang,CN,32.68,109.0172,50.2,94,100,1.1,
515,Olean,US,42.0776,-78.4297,50.58,87,0,3.44,
516,Colchester,GB,51.8892,0.9042,60.94,72,1,15.57,
517,Iraucuba,BR,-3.7461,-39.7833,79.34,61,40,10.83,
518,Japura,ID,-0.3167,102.35,76.17,95,93,2.95,
519,Robertsport,LR,6.7533,-11.3686,80.06,79,81,4.18,
520,Saint-Francois,FR,46.4154,3.9054,58.44,94,100,5.75,
521,Union,US,40.6334,-74.2663,58.21,94,0,5.75,
522,Banamba,ML,13.55,-7.45,85.8,53,12,5.23,
523,Namatanai,PG,-3.6667,152.4333,80.78,79,100,10.4,
524,Ahipara,NZ,-35.1667,173.1667,51.82,62,14,16.06,
525,Ambon,ID,-3.6954,128.1814,86.14,70,40,2.3,
526,Killybegs,IE,54.6333,-8.45,56.91,81,92,22.75,
527,Cam Ranh,VN,11.9214,109.1591,84.16,79,20,9.22,
528,Bembibre,ES,42.6177,-6.4155,67.71,60,100,3.0,
529,Nhulunbuy,AU,-12.2333,136.7667,83.01,74,40,10.36,
530,Cairns,AU,-16.9167,145.7667,80.06,81,100,12.66,
531,Quesnel,CA,52.9999,-122.5029,41.5,93,0,0.0,
532,Bastia,FR,42.6667,9.3333,74.53,65,0,4.61,
533,Gweta,BW,-20.1833,25.2333,97.88,10,0,10.85,
534,Shahr-E Babak,IR,30.1165,55.1186,78.73,9,0,19.42,
535,Dakar,SN,14.6937,-17.4441,85.08,79,40,6.91,
536,Gizo,SB,-8.103,156.8419,82.62,67,87,7.34,
537,Pestovo,RU,58.5938,35.8024,48.99,94,99,8.21,
538,Adre,TD,13.4667,22.2,90.63,28,41,7.43,
539,Itarema,BR,-2.9248,-39.9167,80.38,70,15,17.52,
540,Ocampo,MX,21.65,-101.5,54.36,89,100,2.89,
541,Praya,CV,14.9215,-23.5087,81.14,78,20,8.05,
542,Otorohanga,NZ,-38.1833,175.2,41.18,27,3,2.93,
543,Port Augusta,AU,-32.5,137.7667,72.07,41,80,21.7,
544,Siocon,PH,7.7061,122.1353,81.75,84,75,2.1,
545,Colares,PT,38.7992,-9.4469,70.57,84,0,23.0,
546,Gogrial,SS,8.5332,28.1004,88.75,49,65,3.85,
547,Griffith,US,41.5284,-87.4237,60.89,69,100,3.44,
548,Saint Peter,BB,13.25,-59.6167,79.36,78,100,18.75,
549,Latung,PH,5.5,120.8833,83.34,70,99,4.92,
550,Korla,CN,41.7597,86.1469,66.88,21,0,10.67,
551,Narsingi,IN,18.0333,78.4333,70.79,97,100,7.07,
552,Pabrade,LT,55.0,25.7833,60.22,64,4,12.66,
553,Ust-Kuyga,RU,70.0167,135.6,16.7,98,83,4.23,
554,Wanaka,NZ,-44.7,169.15,33.33,78,5,6.38,
555,Havre-Saint-Pierre,CA,50.2334,-63.5986,48.56,93,100,8.05,
556,Channel-Port Aux Basques,CA,47.5702,-59.1367,51.62,85,100,13.27,
557,Flagstaff,US,35.1981,-111.6513,53.26,77,0,3.44,
558,Biltine,TD,14.5333,20.9167,98.73,14,45,12.08,
559,Nemuro,JP,43.3236,145.575,51.49,59,100,12.48,
560,Surt,LY,31.2089,16.5887,75.78,64,57,11.79,
561,Barstow,US,34.8986,-117.0228,72.59,29,0,4.45,
562,Umea,SE,63.8284,20.2597,53.91,66,0,10.36,
563,Madhupur,IN,24.25,86.65,85.37,69,77,6.4,
564,Rio Grande,BR,-32.035,-52.0986,61.9,95,100,19.46,
565,Santiago De Cao,PE,-7.9589,-79.2392,57.33,94,100,10.36,
566,Wanning,CN,18.8003,110.3967,80.2,87,27,8.19,
567,Port Lincoln,AU,-34.7333,135.8667,58.35,89,93,9.98,
568,Kahului,US,20.8947,-156.47,78.84,78,75,9.22,
569,Kyra,RU,49.5776,111.9753,36.45,42,67,0.47,
570,Praia,CV,14.9215,-23.5087,81.14,78,20,8.05,
571,Red Bluff,US,40.1785,-122.2358,66.52,63,0,8.05,
572,Ostrovnoy,RU,68.0531,39.5131,48.97,73,43,27.98,
573,Chifeng,CN,42.2683,118.9636,47.75,22,55,8.77,
574,Raisen,IN,23.3333,77.8,86.9,67,68,8.1,
575,Acarau,BR,-2.8856,-40.12,80.19,71,17,18.34,
576,Ninh Binh,VN,20.2539,105.975,81.82,80,21,8.14,
577,Rio Cuarto,AR,-33.1307,-64.3499,47.97,100,20,6.91,
578,Filingue,NE,14.3521,3.3168,93.67,40,34,5.21,
579,Urucara,BR,-2.5364,-57.76,75.34,68,33,2.24,
580,Castro Marim,PT,37.2207,-7.4435,74.28,52,5,3.83,
581,Mayo,US,38.8876,-76.5119,57.13,95,0,3.44,
582,Baturaja,ID,-4.1333,104.1667,77.31,93,84,0.94,
583,Torbay,CA,47.6666,-52.7314,48.97,93,75,5.99,
584,Soure,BR,-0.7167,-48.5233,81.61,74,53,14.05,
585,Aykhal,RU,66.0,111.5,10.54,98,97,5.59,
586,Boyuibe,BO,-20.4167,-63.2833,59.81,83,49,13.0,
587,Benguela,AO,-12.5763,13.4055,76.78,70,37,9.01,
588,Callaway,US,30.153,-85.5699,60.91,92,0,0.0,
589,Mago,RU,53.2514,140.1822,32.31,62,91,4.18,
590,Guerrero Negro,MX,27.9769,-114.0611,67.64,88,0,7.07,
591,San Jose,US,37.3394,-121.895,65.59,86,0,0.0,
592,Bafq,IR,31.6128,55.4107,90.32,8,0,17.47,
593,Bluefield,US,37.2698,-81.2223,42.4,96,3,1.1,
594,San Francisco,US,37.7749,-122.4194,62.1,93,20,9.22,
595,Zhangjiakou,CN,40.81,114.8794,50.32,17,4,5.06,
596,Mango,US,27.9797,-82.3065,70.0,92,100,0.0,
597,Guanaja,HN,16.4,-85.9,79.86,76,96,2.71,
598,Port Keats,AU,-14.25,129.55,83.39,71,14,6.69,
599,Jacareacanga,BR,-6.2222,-57.7528,77.41,65,97,0.89,
600,Westport,US,41.1415,-73.3579,61.77,95,0,3.0,
601,Palauig,PH,15.435,119.9045,83.88,80,80,2.21,
602,Itagiba,BR,-14.2836,-39.8428,70.59,88,100,0.6,
603,Kriel,ZA,-26.2739,29.2253,88.81,17,0,11.01,
604,Cobija,BO,-11.0267,-68.7692,71.58,92,87,2.68,
605,Qena,EG,26.1615,32.7183,98.37,18,4,5.82,
606,Makaryev,RU,57.8797,43.8069,50.76,70,95,5.97,
607,Kormilovka,RU,55.0026,74.1028,55.53,36,100,7.58,
608,Papagaios,BR,-19.4492,-44.7478,72.43,71,5,9.44,
609,La Ronge,CA,55.1001,-105.2842,32.22,86,75,3.44,
610,Kungurtug,RU,50.5994,97.5228,36.03,63,100,3.0,
611,Pasighat,IN,28.0667,95.3333,75.15,97,99,2.44,
612,Imeni Poliny Osipenko,RU,52.4201,136.4853,32.52,51,51,7.25,
613,Merghindeal,RO,45.9667,24.7333,61.25,51,100,3.47,
614,West Lorne,CA,42.6001,-81.5998,53.69,52,100,6.58,
615,Kurumkan,RU,54.3,110.3,30.38,64,33,2.71,
616,Umm Lajj,SA,25.0213,37.2685,91.33,52,0,12.88,
617,Zhezkazgan,KZ,47.8043,67.7144,67.98,8,0,8.95,
618,Inongo,CD,-1.95,18.2667,76.14,83,99,1.63,
619,Gravdal,NO,68.1214,13.5031,49.89,76,75,9.22,
620,Ojinaga,MX,29.5667,-104.4167,68.95,68,0,5.75,
621,Pangkalanbuun,ID,-2.6833,111.6167,78.04,93,100,2.86,
622,Kondagaon,IN,19.6,81.6667,75.25,88,93,7.4,
623,Sur,OM,22.5667,59.5289,89.69,45,6,9.55,
624,Huarmey,PE,-10.0681,-78.1522,59.54,87,35,6.46,
625,Abu Samrah,SY,35.3029,37.1841,84.13,23,0,4.21,
626,Coolum Beach,AU,-26.5333,153.1,69.12,80,70,7.09,
627,Tazovskiy,RU,67.4667,78.7,36.82,68,85,9.06,
628,Honiara,SB,-9.4333,159.95,78.94,83,94,2.86,
629,Sangar,RU,63.9242,127.4739,24.96,73,100,4.47,
630,Huilong,CN,31.8111,121.655,60.93,88,100,12.03,
631,Isla Mujeres,MX,21.2311,-86.731,66.25,66,3,5.55,
632,Sao Miguel Do Araguaia,BR,-13.275,-50.1628,82.24,47,11,4.27,
633,Ontario,US,34.0633,-117.6509,74.64,87,100,9.22,
634,Ciudad Bolivar,VE,8.1222,-63.5497,75.29,91,100,2.04,
635,Atar,MR,20.5169,-13.0499,86.05,21,54,11.5,
636,Cienfuegos,CU,22.1461,-80.4356,69.94,94,13,4.61,
637,Valparaiso,CL,-33.0393,-71.6273,54.48,100,0,4.61,
638,Cadillac,US,44.2519,-85.4012,48.11,87,0,4.61,
639,Mercedes,AR,-34.6515,-59.4307,56.03,84,100,7.47,
640,Jieshi,CN,22.8134,115.8257,80.31,79,8,21.03,
641,Snezhnogorsk,RU,69.1933,33.2531,44.38,88,100,26.24,
642,Petropavlovsk-Kamchatskiy,RU,53.0452,158.6483,39.79,65,75,6.71,
643,Olustvere,EE,58.5552,25.563,54.36,87,99,16.51,
644,Bestobe,KZ,52.4994,73.0975,65.21,30,99,9.91,
645,Colac,AU,-38.3333,143.5833,59.16,98,100,5.46,
646,Banda Aceh,ID,5.5577,95.3222,81.05,79,99,13.6,
647,Chaumont,FR,48.1167,5.1333,60.85,61,99,5.21,
648,Pueblo,US,38.2545,-104.6091,50.49,79,7,3.29,
649,Constantine,DZ,36.365,6.6147,69.21,68,40,2.3,
650,Hirado,JP,33.3597,129.5531,70.39,72,100,2.55,
651,Itarantim,BR,-15.6597,-40.0656,71.26,80,20,3.22,
652,Xiongzhou,CN,25.1167,114.3,82.42,58,69,4.45,
653,Qeshm,IR,26.9581,56.2719,96.67,53,0,7.02,
654,Makakilo City,US,21.3469,-158.0858,77.32,80,0,8.05,
655,Alekseyevskoye,RU,55.3071,50.1135,48.81,82,95,10.18,
656,Charlottesville,US,38.0293,-78.4767,54.25,93,0,3.44,
657,Vysotsk,RU,60.6288,28.5705,53.29,91,100,22.93,
658,Kurchum,KZ,48.5722,83.6542,59.95,45,96,13.89,
659,Coihaique,CL,-45.5752,-72.0662,44.55,65,20,8.05,
660,Hue,VN,16.4667,107.6,82.51,78,40,5.75,
661,Kolarovo,SK,47.9229,17.9847,63.14,70,74,4.92,
662,Mahanje,TZ,-9.9333,35.3333,86.85,22,62,8.21,
663,Port-Gentil,GA,-0.7193,8.7815,84.16,70,40,14.97,
664,Cozumel,MX,20.5083,-86.9458,75.27,78,0,0.0,
665,Okato,NZ,-39.2,173.8833,40.17,78,1,5.01,
666,Inhambane,MZ,-23.865,35.3833,86.63,53,0,14.27,
667,Truckee,US,39.328,-120.1833,57.24,50,0,1.77,
668,Catamarca,AR,-28.4696,-65.7852,54.77,75,11,1.99,
669,Tigil,RU,57.8,158.6667,33.19,96,100,14.16,
670,Minden,DE,52.2833,8.9167,59.95,67,20,17.27,
671,Moree,AU,-29.4667,149.85,65.37,69,75,13.67,
672,Kushima,JP,31.4583,131.2333,70.65,85,100,3.22,
673,Mazatlan,MX,23.2167,-106.4167,79.92,88,40,4.0,
